id,name,lat,lon
0,7 Szpital Marynarki Wojennej z Przychodnią SPZOZ im. Kontradmirała prof. W. Łasińskiego,54.39402,18.56699
1,Pomorskie Centrum Chorób Zakaźnych i Gruźlicy,54.36407,18.61703
2,Uniwersyteckie Centrum Kliniczne GUMed,54.36637,18.62090
3,COPERNICUS Podmiot Leczniczy Sp. z o.o.: Szpital św. Wojciecha,54.40290,18.61208
4,NZOZ Gdańskie Centrum Zdrowia,54.40159,18.67119